
{
  "response": {
  "version":"0.1",
  "termsofService":"http://www.wunderground.com/weather/api/d/terms.html",
  "features": {
  "forecast": 1
  ,
  "geolookup": 1
  ,
  "conditions": 1
  }
	}
		,	"location": {
		"type":"CITY",
		"country":"US",
		"country_iso3166":"US",
		"country_name":"USA",
		"state":"CA",
		"city":"Redwood City",
		"tz_short":"PST",
		"tz_long":"America/Los_Angeles",
		"lat":"37.45999908",
		"lon":"-122.23000336",
		"zip":"94061",
		"magic":"1",
		"wmo":"99999",
		"l":"/q/zmw:94061.1.99999",
		"requesturl":"US/CA/Redwood_City.html",
		"wuiurl":"https://www.wunderground.com/US/CA/Redwood_City.html",
		"nearby_weather_stations": {
		"airport": {
		"station": [
		{ "city":"San Carlos", "state":"CA", "country":"US", "icao":"KSQL", "lat":"37.50999832", "lon":"-122.25000000" }
		,{ "city":"Palo Alto", "state":"CA", "country":"US", "icao":"KPAO", "lat":"37.45999908", "lon":"-122.11000061" }
		,{ "city":"Moffett NAS", "state":"CA", "country":"US", "icao":"KNUQ", "lat":"37.40999985", "lon":"-122.05000305" }
		,{ "city":"San Francisco", "state":"CA", "country":"US", "icao":"KSFO", "lat":"37.61999893", "lon":"-122.37000275" }
		]
		}
		,
		"pws": {
		"station": [
		{
		"neighborhood":"Hampton Ave., Woodside Plaza",
		"city":"Redwood City",
		"state":"CA",
		"country":"US",
		"id":"KCAREDWO122",
		"lat":37.456722,
		"lon":-122.233078,
		"distance_km":0,
		"distance_mi":0
		},
		{
		"neighborhood":"Kentfield Ave",
		"city":"Redwood City",
		"state":"CA",
		"country":"US",
		"id":"KCAREDWO144",
		"lat":37.463100,
		"lon":-122.225723,
		"distance_km":0,
		"distance_mi":0
		},
		{
		"neighborhood":"Hawes Ct",
		"city":"Redwood City",
		"state":"CA",
		"country":"US",
		"id":"KCAREDWO128",
		"lat":37.466290,
		"lon":-122.227226,
		"distance_km":0,
		"distance_mi":0
		},
		{
		"neighborhood":"Funky Fresh Woodside Plaza",
		"city":"Redwood City",
		"state":"CA",
		"country":"US",
		"id":"KCAREDWO179",
		"lat":37.457230,
		"lon":-122.238037,
		"distance_km":0,
		"distance_mi":0
		},
		{
		"neighborhood":"Sierra St",
		"city":"Redwood City",
		"state":"CA",
		"country":"US",
		"id":"KCAREDWO117",
		"lat":37.467175,
		"lon":-122.232063,
		"distance_km":0,
		"distance_mi":0
		},
		{
		"neighborhood":"Kensington",
		"city":"Redwood City",
		"state":"CA",
		"country":"US",
		"id":"KCAREDWO170",
		"lat":37.456959,
		"lon":-122.239342,
		"distance_km":0,
		"distance_mi":0
		},
		{
		"neighborhood":"Roosevelt Park",
		"city":"Redwood City",
		"state":"CA",
		"country":"US",
		"id":"KCAREDWO201",
		"lat":37.470551,
		"lon":-122.232887,
		"distance_km":1,
		"distance_mi":0
		},
		{
		"neighborhood":"Beresford Ave",
		"city":"Redwood City",
		"state":"CA",
		"country":"US",
		"id":"KCAREDWO4",
		"lat":37.451488,
		"lon":-122.221497,
		"distance_km":1,
		"distance_mi":0
		},
		{
		"neighborhood":"WOODSIDE TERRACE",
		"city":"Redwood City",
		"state":"CA",
		"country":"US",
		"id":"KCAREDWO158",
		"lat":37.469799,
		"lon":-122.221901,
		"distance_km":1,
		"distance_mi":0
		},
		{
		"neighborhood":"Sterling Heights",
		"city":"Redwood City",
		"state":"CA",
		"country":"US",
		"id":"KCAREDWO5",
		"lat":37.464642,
		"lon":-122.247040,
		"distance_km":1,
		"distance_mi":0
		},
		{
		"neighborhood":"Farm Hills",
		"city":"Redwood City",
		"state":"CA",
		"country":"US",
		"id":"KCAREDWO184",
		"lat":37.467384,
		"lon":-122.247330,
		"distance_km":1,
		"distance_mi":1
		},
		{
		"neighborhood":"Farm Hill",
		"city":"Redwood City",
		"state":"CA",
		"country":"US",
		"id":"KCAREDWO193",
		"lat":37.461586,
		"lon":-122.249710,
		"distance_km":1,
		"distance_mi":1
		},
		{
		"neighborhood":"Castle Club",
		"city":"Redwood City",
		"state":"CA",
		"country":"US",
		"id":"KCAREDWO44",
		"lat":37.460339,
		"lon":-122.252052,
		"distance_km":1,
		"distance_mi":1
		},
		{
		"neighborhood":"Farm Hill",
		"city":"Redwood City",
		"state":"CA",
		"country":"US",
		"id":"KCAREDWO210",
		"lat":37.455173,
		"lon":-122.251549,
		"distance_km":1,
		"distance_mi":1
		},
		{
		"neighborhood":"Mt. Carmel, Hudson Street",
		"city":"Redwood City",
		"state":"CA",
		"country":"US",
		"id":"KCAREDWO171",
		"lat":37.478237,
		"lon":-122.236908,
		"distance_km":2,
		"distance_mi":1
		},
		{
		"neighborhood":"Eagle Hill",
		"city":"Redwood City",
		"state":"CA",
		"country":"US",
		"id":"KCAREDWO36",
		"lat":37.473385,
		"lon":-122.248543,
		"distance_km":2,
		"distance_mi":1
		},
		{
		"neighborhood":"Inner Circle",
		"city":"Redwood City",
		"state":"CA",
		"country":"US",
		"id":"KCAREDWO98",
		"lat":37.476570,
		"lon":-122.245682,
		"distance_km":2,
		"distance_mi":1
		},
		{
		"neighborhood":"Woodside Hills",
		"city":"Redwood City",
		"state":"CA",
		"country":"US",
		"id":"KCAREDWO215",
		"lat":37.445755,
		"lon":-122.250900,
		"distance_km":2,
		"distance_mi":1
		},
		{
		"neighborhood":"Mount Carmel",
		"city":"Redwood City",
		"state":"CA",
		"country":"US",
		"id":"KCAREDWO85",
		"lat":37.481777,
		"lon":-122.233612,
		"distance_km":2,
		"distance_mi":1
		},
		{
		"neighborhood":"North Fair Oaks",
		"city":"Redwood City",
		"state":"CA",
		"country":"US",
		"id":"KCAREDWO124",
		"lat":37.470253,
		"lon":-122.204910,
		"distance_km":2,
		"distance_mi":1
		},
		{
		"neighborhood":"Emerald Hills",
		"city":"Redwood City",
		"state":"CA",
		"country":"US",
		"id":"KCAREDWO203",
		"lat":37.460018,
		"lon":-122.258820,
		"distance_km":2,
		"distance_mi":1
		},
		{
		"neighborhood":"West Atherton",
		"city":"Atherton",
		"state":"CA",
		"country":"US",
		"id":"KCAATHER4",
		"lat":37.449924,
		"lon":-122.203850,
		"distance_km":2,
		"distance_mi":1
		},
		{
		"neighborhood":"Redwood City Emerald Hills - Canyon",
		"city":"Redwood City",
		"state":"CA",
		"country":"US",
		"id":"KCAREDWO41",
		"lat":37.470345,
		"lon":-122.257263,
		"distance_km":2,
		"distance_mi":1
		},
		{
		"neighborhood":"Woodside Hills",
		"city":"Redwood City",
		"state":"CA",
		"country":"US",
		"id":"KCAREDWO114",
		"lat":37.443691,
		"lon":-122.252342,
		"distance_km":2,
		"distance_mi":1
		},
		{
		"neighborhood":"Eagle Hill",
		"city":"Redwood City",
		"state":"CA",
		"country":"US",
		"id":"KCAREDWO132",
		"lat":37.485199,
		"lon":-122.236397,
		"distance_km":2,
		"distance_mi":1
		},
		{
		"neighborhood":"Emerald Hills",
		"city":"Redwood City",
		"state":"CA",
		"country":"US",
		"id":"KCAREDWO182",
		"lat":37.468693,
		"lon":-122.260712,
		"distance_km":2,
		"distance_mi":1
		},
		{
		"neighborhood":"Mt Carmel",
		"city":"Redwood City",
		"state":"CA",
		"country":"US",
		"id":"KCAREDWO73",
		"lat":37.485497,
		"lon":-122.241272,
		"distance_km":3,
		"distance_mi":1
		},
		{
		"neighborhood":"Emerald Hills",
		"city":"Redwood City",
		"state":"CA",
		"country":"US",
		"id":"KCAREDWO163",
		"lat":37.469631,
		"lon":-122.262711,
		"distance_km":3,
		"distance_mi":1
		}
		]
		}
		}
	}
  ,	"current_observation": {
		"image": {
		"url":"http://icons.wxug.com/graphics/wu2/logo_130x80.png",
		"title":"Weather Underground",
		"link":"http://www.wunderground.com"
		},
		"display_location": {
		"full":"Redwood City, CA",
		"city":"Redwood City",
		"state":"CA",
		"state_name":"California",
		"country":"US",
		"country_iso3166":"US",
		"zip":"94061",
		"magic":"1",
		"wmo":"99999",
		"latitude":"37.45999908",
		"longitude":"-122.23000336",
		"elevation":"39.0"
		},
		"observation_location": {
		"full":"San Carlos, California",
		"city":"San Carlos",
		"state":"California",
		"country":"US",
		"country_iso3166":"US",
		"latitude":"37.46",
		"longitude":"-122.23",
		"elevation":"15 ft"
		},
		"estimated": {
		},
		"station_id":"KCAREDWO122",
		"observation_time":"Last Updated on February 24, 12:49 PM PST",
		"observation_time_rfc822":"Sun, 24 Feb 2019 12:49:40 -0800",
		"observation_epoch":"1551041380",
		"local_time_rfc822":"Sun, 24 Feb 2019 12:49:45 -0800",
		"local_epoch":"1551041385",
		"local_tz_short":"PST",
		"local_tz_long":"America/Los_Angeles",
		"local_tz_offset":"-0800",
		"weather":"Mostly Cloudy",
		"temperature_string":"61.9 F (16.6 C)",
		"temp_f":61.9,
		"temp_c":16.6,
		"relative_humidity":"67%",
		"wind_string":"From the NNE at 4.2 MPH",
		"wind_dir":"NNE",
		"wind_degrees":22,
		"wind_mph":4.2,
		"wind_gust_mph":0,
		"wind_kph":6.8,
		"wind_gust_kph":0,
		"pressure_mb":"1024",
		"pressure_in":"30.23",
		"pressure_trend":"-",
		"dewpoint_string":"51 F (10 C)",
		"dewpoint_f":51,
		"dewpoint_c":10,
		"heat_index_string":"NA",
		"heat_index_f":"NA",
		"heat_index_c":"NA",
		"windchill_string":"NA",
		"windchill_f":"NA",
		"windchill_c":"NA",
		"feelslike_string":"61.9 F (16.6 C)",
		"feelslike_f":"61.9",
		"feelslike_c":"16.6",
		"visibility_mi":"10.0",
		"visibility_km":"16.1",
		"solarradiation":"--",
		"UV":"2","precip_1hr_string":"0.00 in ( 0 mm)",
		"precip_1hr_in":"0.00",
		"precip_1hr_metric":" 0",
		"precip_today_string":"0.00 in (0 mm)",
		"precip_today_in":"0.00",
		"precip_today_metric":"0",
		"icon":"mostlycloudy",
		"icon_url":"http://icons.wxug.com/i/c/k/mostlycloudy.gif",
		"forecast_url":"http://www.wunderground.com/US/CA/Redwood_City.html",
		"history_url":"http://www.wunderground.com/weatherstation/WXDailyHistory.asp?ID=KCAREDWO122",
		"ob_url":"http://www.wunderground.com/cgi-bin/findweather/getForecast?query=37.456722,-122.233078",
		"nowcast":""
	}
		,
	"forecast":{
		"txt_forecast": {
		"date":"12:10 PM PST",
		"forecastday": [
		{
		"period":0,
		"icon":"cloudy",
		"icon_url":"http://icons.wxug.com/i/c/k/cloudy.gif",
		"title":"Sunday",
		"fcttext":"Generally cloudy. High around 60F. Winds W at 5 to 10 mph.",
		"fcttext_metric":"",
		"pop":"0"
		}
		,
		{
		"period":1,
		"icon":"nt_cloudy",
		"icon_url":"http://icons.wxug.com/i/c/k/nt_cloudy.gif",
		"title":"Sunday Night",
		"fcttext":"Cloudy. Low 46F. Winds light and variable.",
		"fcttext_metric":"",
		"pop":"10"
		}
		,
		{
		"period":2,
		"icon":"rain",
		"icon_url":"http://icons.wxug.com/i/c/k/rain.gif",
		"title":"Monday",
		"fcttext":"Rain showers in the morning will evolve into a more steady rain in the afternoon. High 56F. Winds S at 15 to 25 mph. Chance of rain 90%. Rainfall around a half an inch.",
		"fcttext_metric":"",
		"pop":"90"
		}
		,
		{
		"period":3,
		"icon":"nt_rain",
		"icon_url":"http://icons.wxug.com/i/c/k/nt_rain.gif",
		"title":"Monday Night",
		"fcttext":"Periods of rain. Low 54F. Winds S at 10 to 20 mph. Chance of rain 90%. Rainfall near an inch.",
		"fcttext_metric":"",
		"pop":"90"
		}
		,
		{
		"period":4,
		"icon":"rain",
		"icon_url":"http://icons.wxug.com/i/c/k/rain.gif",
		"title":"Tuesday",
		"fcttext":"Rain. High 57F. Winds S at 15 to 25 mph. Chance of rain 90%. Rainfall near a half an inch. Locally heavy rainfall possible.",
		"fcttext_metric":"",
		"pop":"90"
		}
		,
		{
		"period":5,
		"icon":"nt_rain",
		"icon_url":"http://icons.wxug.com/i/c/k/nt_rain.gif",
		"title":"Tuesday Night",
		"fcttext":"Thundershowers following a period of rain early. Low 53F. Winds S at 15 to 25 mph. Chance of rain 100%.",
		"fcttext_metric":"",
		"pop":"100"
		}
		,
		{
		"period":6,
		"icon":"chancerain",
		"icon_url":"http://icons.wxug.com/i/c/k/chancerain.gif",
		"title":"Wednesday",
		"fcttext":"Showers early becoming a steady light rain later in the day. High near 60F. Winds SSW at 10 to 15 mph. Chance of rain 60%.",
		"fcttext_metric":"",
		"pop":"60"
		}
		,
		{
		"period":7,
		"icon":"nt_cloudy",
		"icon_url":"http://icons.wxug.com/i/c/k/nt_cloudy.gif",
		"title":"Wednesday Night",
		"fcttext":"Cloudy. Low 47F. Winds WSW at 5 to 10 mph.",
		"fcttext_metric":"",
		"pop":"20"
		}
		]
		},
		"simpleforecast": {
		"forecastday": [
		{"date":{
	"epoch":"1551063600",
	"pretty":"7:00 PM PST on February 24, 2019",
	"day":24,
	"month":2,
	"year":2019,
	"yday":54,
	"hour":19,
	"min":"00",
	"sec":0,
	"isdst":"0",
	"monthname":"February",
	"monthname_short":"Feb",
	"weekday_short":"Sun",
	"weekday":"Sunday",
	"ampm":"PM",
	"tz_short":"PST",
	"tz_long":"America/Los_Angeles"
},
		"period":1,
		"high": {
		"fahrenheit":"63",
		"celsius":"17"
		},
		"low": {
		"fahrenheit":"46",
		"celsius":"8"
		},
		"conditions":"Overcast",
		"icon":"cloudy",
		"icon_url":"http://icons.wxug.com/i/c/k/cloudy.gif",
		"skyicon":"",
		"pop":0,
		"qpf_allday": {
		"in": 0.00,
		"mm": 0
		},
		"qpf_day": {
		"in": 0.00,
		"mm": 0
		},
		"qpf_night": {
		"in": 0.00,
		"mm": 0
		},
		"snow_allday": {
		"in": 0.0,
		"cm": 0.0
		},
		"snow_day": {
		"in": 0.0,
		"cm": 0.0
		},
		"snow_night": {
		"in": 0.0,
		"cm": 0.0
		},
		"maxwind": {
		"mph": 10,
		"kph": 16,
		"dir": "W",
		"degrees": 269
		},
		"avewind": {
		"mph": 6,
		"kph": 10,
		"dir": "W",
		"degrees": 269
		},
		"avehumidity": 60,
		"maxhumidity": 0,
		"minhumidity": 0
		}
		,
		{"date":{
	"epoch":"1551150000",
	"pretty":"7:00 PM PST on February 25, 2019",
	"day":25,
	"month":2,
	"year":2019,
	"yday":55,
	"hour":19,
	"min":"00",
	"sec":0,
	"isdst":"0",
	"monthname":"February",
	"monthname_short":"Feb",
	"weekday_short":"Mon",
	"weekday":"Monday",
	"ampm":"PM",
	"tz_short":"PST",
	"tz_long":"America/Los_Angeles"
},
		"period":2,
		"high": {
		"fahrenheit":"56",
		"celsius":"13"
		},
		"low": {
		"fahrenheit":"54",
		"celsius":"12"
		},
		"conditions":"Rain",
		"icon":"rain",
		"icon_url":"http://icons.wxug.com/i/c/k/rain.gif",
		"skyicon":"",
		"pop":90,
		"qpf_allday": {
		"in": 1.58,
		"mm": 40
		},
		"qpf_day": {
		"in": 0.39,
		"mm": 10
		},
		"qpf_night": {
		"in": 1.19,
		"mm": 30
		},
		"snow_allday": {
		"in": 0.0,
		"cm": 0.0
		},
		"snow_day": {
		"in": 0.0,
		"cm": 0.0
		},
		"snow_night": {
		"in": 0.0,
		"cm": 0.0
		},
		"maxwind": {
		"mph": 25,
		"kph": 40,
		"dir": "S",
		"degrees": 175
		},
		"avewind": {
		"mph": 17,
		"kph": 27,
		"dir": "S",
		"degrees": 175
		},
		"avehumidity": 77,
		"maxhumidity": 0,
		"minhumidity": 0
		}
		,
		{"date":{
	"epoch":"1551236400",
	"pretty":"7:00 PM PST on February 26, 2019",
	"day":26,
	"month":2,
	"year":2019,
	"yday":56,
	"hour":19,
	"min":"00",
	"sec":0,
	"isdst":"0",
	"monthname":"February",
	"monthname_short":"Feb",
	"weekday_short":"Tue",
	"weekday":"Tuesday",
	"ampm":"PM",
	"tz_short":"PST",
	"tz_long":"America/Los_Angeles"
},
		"period":3,
		"high": {
		"fahrenheit":"57",
		"celsius":"14"
		},
		"low": {
		"fahrenheit":"53",
		"celsius":"12"
		},
		"conditions":"Rain",
		"icon":"rain",
		"icon_url":"http://icons.wxug.com/i/c/k/rain.gif",
		"skyicon":"",
		"pop":90,
		"qpf_allday": {
		"in": 1.46,
		"mm": 37
		},
		"qpf_day": {
		"in": 0.72,
		"mm": 18
		},
		"qpf_night": {
		"in": 0.74,
		"mm": 19
		},
		"snow_allday": {
		"in": 0.0,
		"cm": 0.0
		},
		"snow_day": {
		"in": 0.0,
		"cm": 0.0
		},
		"snow_night": {
		"in": 0.0,
		"cm": 0.0
		},
		"maxwind": {
		"mph": 25,
		"kph": 40,
		"dir": "S",
		"degrees": 171
		},
		"avewind": {
		"mph": 18,
		"kph": 29,
		"dir": "S",
		"degrees": 171
		},
		"avehumidity": 81,
		"maxhumidity": 0,
		"minhumidity": 0
		}
		,
		{"date":{
	"epoch":"1551322800",
	"pretty":"7:00 PM PST on February 27, 2019",
	"day":27,
	"month":2,
	"year":2019,
	"yday":57,
	"hour":19,
	"min":"00",
	"sec":0,
	"isdst":"0",
	"monthname":"February",
	"monthname_short":"Feb",
	"weekday_short":"Wed",
	"weekday":"Wednesday",
	"ampm":"PM",
	"tz_short":"PST",
	"tz_long":"America/Los_Angeles"
},
		"period":4,
		"high": {
		"fahrenheit":"60",
		"celsius":"16"
		},
		"low": {
		"fahrenheit":"47",
		"celsius":"8"
		},
		"conditions":"Chance of Rain",
		"icon":"chancerain",
		"icon_url":"http://icons.wxug.com/i/c/k/chancerain.gif",
		"skyicon":"",
		"pop":60,
		"qpf_allday": {
		"in": 0.10,
		"mm": 3
		},
		"qpf_day": {
		"in": 0.10,
		"mm": 3
		},
		"qpf_night": {
		"in": 0.00,
		"mm": 0
		},
		"snow_allday": {
		"in": 0.0,
		"cm": 0.0
		},
		"snow_day": {
		"in": 0.0,
		"cm": 0.0
		},
		"snow_night": {
		"in": 0.0,
		"cm": 0.0
		},
		"maxwind": {
		"mph": 15,
		"kph": 24,
		"dir": "SSW",
		"degrees": 207
		},
		"avewind": {
		"mph": 12,
		"kph": 19,
		"dir": "SSW",
		"degrees": 207
		},
		"avehumidity": 83,
		"maxhumidity": 0,
		"minhumidity": 0
		}
		]
		}
	}
}
