
{
  "response": {
  "version":"0.1",
  "termsofService":"http://www.wunderground.com/weather/api/d/terms.html",
  "features": {
  "forecast": 1
  ,
  "geolookup": 1
  ,
  "conditions": 1
  }
	}
		,	"location": {
		"type":"CITY",
		"country":"US",
		"country_iso3166":"US",
		"country_name":"USA",
		"state":"CA",
		"city":"South San Francisco",
		"tz_short":"PST",
		"tz_long":"America/Los_Angeles",
		"lat":"37.65000153",
		"lon":"-122.43000031",
		"zip":"94080",
		"magic":"1",
		"wmo":"99999",
		"l":"/q/zmw:94080.1.99999",
		"requesturl":"US/CA/South_San_Francisco.html",
		"wuiurl":"https://www.wunderground.com/US/CA/South_San_Francisco.html",
		"nearby_weather_stations": {
		"airport": {
		"station": [
		{ "city":"San Francisco", "state":"CA", "country":"US", "icao":"KSFO", "lat":"37.61999893", "lon":"-122.37000275" }
		,{ "city":"Half Moon Bay", "state":"CA", "country":"US", "icao":"KHAF", "lat":"37.50999832", "lon":"-122.50000000" }
		,{ "city":"Oakland", "state":"CA", "country":"US", "icao":"KOAK", "lat":"37.72000122", "lon":"-122.22000122" }
		,{ "city":"San Carlos", "state":"CA", "country":"US", "icao":"KSQL", "lat":"37.50999832", "lon":"-122.25000000" }
		]
		}
		,
		"pws": {
		"station": [
		{
		"neighborhood":"Avalon",
		"city":"South San Francisco",
		"state":"CA",
		"country":"US",
		"id":"KCASOUTH147",
		"lat":37.643826,
		"lon":-122.435318,
		"distance_km":0,
		"distance_mi":0
		},
		{
		"neighborhood":"Brentwood",
		"city":"South San Francisco",
		"state":"CA",
		"country":"US",
		"id":"KCASOUTH97",
		"lat":37.636330,
		"lon":-122.431061,
		"distance_km":1,
		"distance_mi":0
		},
		{
		"neighborhood":"Hillside Sunshine Gardens",
		"city":"South San Francisco",
		"state":"CA",
		"country":"US",
		"id":"KCASOUTH131",
		"lat":37.665688,
		"lon":-122.430946,
		"distance_km":1,
		"distance_mi":1
		},
		{
		"neighborhood":"Sign Hill",
		"city":"South San Francisco",
		"state":"CA",
		"country":"US",
		"id":"KCASOUTH103",
		"lat":37.665783,
		"lon":-122.424088,
		"distance_km":1,
		"distance_mi":1
		},
		{
		"neighborhood":"Sunshine Gardens",
		"city":"South San Francisco",
		"state":"CA",
		"country":"US",
		"id":"KCASOUTH80",
		"lat":37.664078,
		"lon":-122.442108,
		"distance_km":1,
		"distance_mi":1
		},
		{
		"neighborhood":"SSF Cal-Train Station",
		"city":"South San Francisco",
		"state":"CA",
		"country":"US",
		"id":"KCASOUTH124",
		"lat":37.656223,
		"lon":-122.405670,
		"distance_km":2,
		"distance_mi":1
		},
		{
		"neighborhood":"Monte Verde Area, San Bruno",
		"city":"San Bruno",
		"state":"CA",
		"country":"US",
		"id":"KCASANBR2",
		"lat":37.635254,
		"lon":-122.451424,
		"distance_km":2,
		"distance_mi":1
		},
		{
		"neighborhood":"Monte Verde",
		"city":"San Bruno",
		"state":"CA",
		"country":"US",
		"id":"KCASANBR34",
		"lat":37.636536,
		"lon":-122.453819,
		"distance_km":2,
		"distance_mi":1
		},
		{
		"neighborhood":"Mills Park",
		"city":"San Bruno",
		"state":"CA",
		"country":"US",
		"id":"KCASANBR12",
		"lat":37.625462,
		"lon":-122.422470,
		"distance_km":2,
		"distance_mi":1
		},
		{
		"neighborhood":"Pacific Heights - Skyline College Area",
		"city":"San Bruno",
		"state":"CA",
		"country":"US",
		"id":"KCASANBR27",
		"lat":37.631042,
		"lon":-122.456177,
		"distance_km":3,
		"distance_mi":1
		},
		{
		"neighborhood":"Grundy Park",
		"city":"San Bruno",
		"state":"CA",
		"country":"US",
		"id":"KCASANBR24",
		"lat":37.622520,
		"lon":-122.420624,
		"distance_km":3,
		"distance_mi":1
		},
		{
		"neighborhood":"Crestmoor",
		"city":"San Bruno",
		"state":"CA",
		"country":"US",
		"id":"KCASANBR31",
		"lat":37.621578,
		"lon":-122.435242,
		"distance_km":3,
		"distance_mi":1
		},
		{
		"neighborhood":"Crestmoor II",
		"city":"San Bruno",
		"state":"CA",
		"country":"US",
		"id":"KCASANBR38",
		"lat":37.622540,
		"lon":-122.442421,
		"distance_km":3,
		"distance_mi":1
		},
		{
		"neighborhood":"Portola Highlands",
		"city":"San Bruno",
		"state":"CA",
		"country":"US",
		"id":"KCASANBR15",
		"lat":37.624126,
		"lon":-122.451912,
		"distance_km":3,
		"distance_mi":2
		},
		{
		"neighborhood":"Pacific Heights",
		"city":"San Bruno",
		"state":"CA",
		"country":"US",
		"id":"KCASANBR32",
		"lat":37.628029,
		"lon":-122.458344,
		"distance_km":3,
		"distance_mi":2
		},
		{
		"neighborhood":"Huntington Park",
		"city":"San Bruno",
		"state":"CA",
		"country":"US",
		"id":"KCASANBR16",
		"lat":37.621155,
		"lon":-122.413101,
		"distance_km":3,
		"distance_mi":2
		},
		{
		"neighborhood":"Crestmoor 3",
		"city":"San Bruno",
		"state":"CA",
		"country":"US",
		"id":"KCASANBR41",
		"lat":37.618492,
		"lon":-122.438469,
		"distance_km":3,
		"distance_mi":2
		},
		{
		"neighborhood":"On the Hill",
		"city":"Pacifica",
		"state":"CA",
		"country":"US",
		"id":"KCAPACIF15",
		"lat":37.653809,
		"lon":-122.473000,
		"distance_km":3,
		"distance_mi":2
		},
		{
		"neighborhood":"Inverness Drive",
		"city":"Pacifica",
		"state":"CA",
		"country":"US",
		"id":"KCAPACIF89",
		"lat":37.646313,
		"lon":-122.474060,
		"distance_km":3,
		"distance_mi":2
		},
		{
		"neighborhood":"Pacifica Westview-Pacific Highlands",
		"city":"Pacifica",
		"state":"CA",
		"country":"US",
		"id":"KCAPACIF5",
		"lat":37.647118,
		"lon":-122.475708,
		"distance_km":4,
		"distance_mi":2
		},
		{
		"neighborhood":"East Jamie Court",
		"city":"South San Francisco",
		"state":"CA",
		"country":"US",
		"id":"KCASOUTH89",
		"lat":37.648605,
		"lon":-122.383507,
		"distance_km":4,
		"distance_mi":2
		},
		{
		"neighborhood":"Downtown Brisbane",
		"city":"Brisbane",
		"state":"CA",
		"country":"US",
		"id":"KCABRISB13",
		"lat":37.680977,
		"lon":-122.402412,
		"distance_km":4,
		"distance_mi":2
		},
		{
		"neighborhood":"Brisbane - Central",
		"city":"Brisbane",
		"state":"CA",
		"country":"US",
		"id":"KCABRISB8",
		"lat":37.684372,
		"lon":-122.405960,
		"distance_km":4,
		"distance_mi":2
		},
		{
		"neighborhood":"Brisbane - Central (Bloomsky)",
		"city":"Brisbane",
		"state":"CA",
		"country":"US",
		"id":"KCABRISB9",
		"lat":37.684383,
		"lon":-122.405983,
		"distance_km":4,
		"distance_mi":2
		},
		{
		"neighborhood":"South of City Park",
		"city":"San Bruno",
		"state":"CA",
		"country":"US",
		"id":"KCASANBR40",
		"lat":37.612415,
		"lon":-122.414230,
		"distance_km":4,
		"distance_mi":2
		},
		{
		"neighborhood":"Crestmoor",
		"city":"San Bruno",
		"state":"CA",
		"country":"US",
		"id":"KCASANBR3",
		"lat":37.609894,
		"lon":-122.431709,
		"distance_km":4,
		"distance_mi":2
		},
		{
		"neighborhood":"Brisbane CA",
		"city":"Brisbane",
		"state":"CA",
		"country":"US",
		"id":"KCABRISB12",
		"lat":37.682327,
		"lon":-122.397614,
		"distance_km":4,
		"distance_mi":2
		},
		{
		"neighborhood":"Pacifica Manor",
		"city":"Pacifica",
		"state":"CA",
		"country":"US",
		"id":"KCAPACIF128",
		"lat":37.653156,
		"lon":-122.483452,
		"distance_km":4,
		"distance_mi":2
		},
		{
		"neighborhood":"Oyster Point Yacht Club",
		"city":"South San Francisco",
		"state":"CA",
		"country":"US",
		"id":"KCASOUTH109",
		"lat":37.662224,
		"lon":-122.377747,
		"distance_km":4,
		"distance_mi":2
		}
		]
		}
		}
	}
  ,	"current_observation": {
		"image": {
		"url":"http://icons.wxug.com/graphics/wu2/logo_130x80.png",
		"title":"Weather Underground",
		"link":"http://www.wunderground.com"
		},
		"display_location": {
		"full":"South San Francisco, CA",
		"city":"South San Francisco",
		"state":"CA",
		"state_name":"California",
		"country":"US",
		"country_iso3166":"US",
		"zip":"94080",
		"magic":"1",
		"wmo":"99999",
		"latitude":"37.65000153",
		"longitude":"-122.43000031",
		"elevation":"60.0"
		},
		"observation_location": {
		"full":"San Francisco, California",
		"city":"San Francisco",
		"state":"California",
		"country":"US",
		"country_iso3166":"US",
		"latitude":"37.64",
		"longitude":"-122.44",
		"elevation":"20 ft"
		},
		"estimated": {
		},
		"station_id":"KCASOUTH147",
		"observation_time":"Last Updated on February 24, 12:56 PM PST",
		"observation_time_rfc822":"Sun, 24 Feb 2019 12:56:15 -0800",
		"observation_epoch":"1551041775",
		"local_time_rfc822":"Sun, 24 Feb 2019 12:56:51 -0800",
		"local_epoch":"1551041811",
		"local_tz_short":"PST",
		"local_tz_long":"America/Los_Angeles",
		"local_tz_offset":"-0800",
		"weather":"Mostly Cloudy",
		"temperature_string":"58.8 F (14.9 C)",
		"temp_f":58.8,
		"temp_c":14.9,
		"relative_humidity":"60%",
		"wind_string":"From the NW at 1.6 MPH Gusting to 2.2 MPH",
		"wind_dir":"NW",
		"wind_degrees":325,
		"wind_mph":1.6,
		"wind_gust_mph":"2.2",
		"wind_kph":2.6,
		"wind_gust_kph":"3.5",
		"pressure_mb":"1023",
		"pressure_in":"30.22",
		"pressure_trend":"-",
		"dewpoint_string":"45 F (7 C)",
		"dewpoint_f":45,
		"dewpoint_c":7,
		"heat_index_string":"NA",
		"heat_index_f":"NA",
		"heat_index_c":"NA",
		"windchill_string":"NA",
		"windchill_f":"NA",
		"windchill_c":"NA",
		"feelslike_string":"58.8 F (14.9 C)",
		"feelslike_f":"58.8",
		"feelslike_c":"14.9",
		"visibility_mi":"10.0",
		"visibility_km":"16.1",
		"solarradiation":"213",
		"UV":"2.0","precip_1hr_string":"0.00 in ( 0 mm)",
		"precip_1hr_in":"0.00",
		"precip_1hr_metric":" 0",
		"precip_today_string":"0.00 in (0 mm)",
		"precip_today_in":"0.00",
		"precip_today_metric":"0",
		"icon":"mostlycloudy",
		"icon_url":"http://icons.wxug.com/i/c/k/mostlycloudy.gif",
		"forecast_url":"http://www.wunderground.com/US/CA/South_San_Francisco.html",
		"history_url":"http://www.wunderground.com/weatherstation/WXDailyHistory.asp?ID=KCASOUTH147",
		"ob_url":"http://www.wunderground.com/cgi-bin/findweather/getForecast?query=37.643826,-122.435318",
		"nowcast":""
	}
		,
	"forecast":{
		"txt_forecast": {
		"date":"11:59 AM PST",
		"forecastday": [
		{
		"period":0,
		"icon":"cloudy",
		"icon_url":"http://icons.wxug.com/i/c/k/cloudy.gif",
		"title":"Sunday",
		"fcttext":"Cloudy skies. High 54F. Winds WSW at 10 to 15 mph.",
		"fcttext_metric":"Generally cloudy. High 14C. Winds WSW at 10 to 15 km/h.",
		"pop":"0"
		}
		,
		{
		"period":1,
		"icon":"nt_cloudy",
		"icon_url":"http://icons.wxug.com/i/c/k/nt_cloudy.gif",
		"title":"Sunday Night",
		"fcttext":"Cloudy. Low 47F. Winds S at 10 to 15 mph.",
		"fcttext_metric":"Cloudy. Low 9C. Winds S at 15 to 25 km/h.",
		"pop":"10"
		}
		,
		{
		"period":2,
		"icon":"rain",
		"icon_url":"http://icons.wxug.com/i/c/k/rain.gif",
		"title":"Monday",
		"fcttext":"Showers in the morning, then becoming windy with a steady rain in the afternoon. High 54F. Winds S at 25 to 35 mph. Chance of rain 90%. Rainfall around a half an inch.",
		"fcttext_metric":"Rain showers early with a steady, soaking rain later in the day. Increasing winds. High 13C. Winds S at 40 to 55 km/h. Chance of rain 90%. Rainfall around 12mm.",
		"pop":"90"
		}
		,
		{
		"period":3,
		"icon":"nt_rain",
		"icon_url":"http://icons.wxug.com/i/c/k/nt_rain.gif",
		"title":"Monday Night",
		"fcttext":"Rain and wind. Low 52F. Winds S at 25 to 35 mph. Chance of rain 90%. Rainfall near an inch.",
		"fcttext_metric":"Cloudy and windy with periods of rain. Low 12C. Winds S at 30 to 50 km/h. Chance of rain 90%. Rainfall near 25mm.",
		"pop":"90"
		}
		,
		{
		"period":4,
		"icon":"rain",
		"icon_url":"http://icons.wxug.com/i/c/k/rain.gif",
		"title":"Tuesday",
		"fcttext":"Rain and wind. High around 55F. Winds S at 25 to 35 mph. Chance of rain 100%. Rainfall possibly over one inch. Locally heavy rainfall possible.",
		"fcttext_metric":"Windy with rain likely. High 14C. Winds S at 40 to 55 km/h. Chance of rain 100%. Rainfall possibly over 25mm. Locally heavy rainfall possible.",
		"pop":"100"
		}
		,
		{
		"period":5,
		"icon":"nt_tstorms",
		"icon_url":"http://icons.wxug.com/i/c/k/nt_tstorms.gif",
		"title":"Tuesday Night",
		"fcttext":"Windy with rain and thunderstorms likely. Low 52F. Winds S at 25 to 35 mph. Chance of rain 100%.",
		"fcttext_metric":"Windy with rain early...thunderstorms developing late. Low 12C. Winds S at 40 to 55 km/h. Chance of rain 100%.",
		"pop":"100"
		}
		,
		{
		"period":6,
		"icon":"chancerain",
		"icon_url":"http://icons.wxug.com/i/c/k/chancerain.gif",
		"title":"Wednesday",
		"fcttext":"Overcast with rain showers at times. High 56F. Winds SSW at 10 to 20 mph. Chance of rain 60%.",
		"fcttext_metric":"Overcast with rain showers at times. High 14C. Winds SSW at 15 to 30 km/h. Chance of rain 60%.",
		"pop":"60"
		}
		,
		{
		"period":7,
		"icon":"nt_chancerain",
		"icon_url":"http://icons.wxug.com/i/c/k/nt_chancerain.gif",
		"title":"Wednesday Night",
		"fcttext":"Showers in the evening, then cloudy overnight. Low 47F. Winds W at 10 to 15 mph. Chance of rain 30%.",
		"fcttext_metric":"Rain showers early with overcast skies late. Low 9C. Winds W at 15 to 25 km/h. Chance of rain 40%.",
		"pop":"30"
		}
		]
		},
		"simpleforecast": {
		"forecastday": [
		{"date":{
	"epoch":"1551063600",
	"pretty":"7:00 PM PST on February 24, 2019",
	"day":24,
	"month":2,
	"year":2019,
	"yday":54,
	"hour":19,
	"min":"00",
	"sec":0,
	"isdst":"0",
	"monthname":"February",
	"monthname_short":"Feb",
	"weekday_short":"Sun",
	"weekday":"Sunday",
	"ampm":"PM",
	"tz_short":"PST",
	"tz_long":"America/Los_Angeles"
},
		"period":1,
		"high": {
		"fahrenheit":"60",
		"celsius":"16"
		},
		"low": {
		"fahrenheit":"47",
		"celsius":"8"
		},
		"conditions":"Overcast",
		"icon":"cloudy",
		"icon_url":"http://icons.wxug.com/i/c/k/cloudy.gif",
		"skyicon":"",
		"pop":0,
		"qpf_allday": {
		"in": 0.00,
		"mm": 0
		},
		"qpf_day": {
		"in": 0.00,
		"mm": 0
		},
		"qpf_night": {
		"in": 0.00,
		"mm": 0
		},
		"snow_allday": {
		"in": 0.0,
		"cm": 0.0
		},
		"snow_day": {
		"in": 0.0,
		"cm": 0.0
		},
		"snow_night": {
		"in": 0.0,
		"cm": 0.0
		},
		"maxwind": {
		"mph": 15,
		"kph": 24,
		"dir": "WSW",
		"degrees": 237
		},
		"avewind": {
		"mph": 11,
		"kph": 18,
		"dir": "WSW",
		"degrees": 237
		},
		"avehumidity": 67,
		"maxhumidity": 0,
		"minhumidity": 0
		}
		,
		{"date":{
	"epoch":"1551150000",
	"pretty":"7:00 PM PST on February 25, 2019",
	"day":25,
	"month":2,
	"year":2019,
	"yday":55,
	"hour":19,
	"min":"00",
	"sec":0,
	"isdst":"0",
	"monthname":"February",
	"monthname_short":"Feb",
	"weekday_short":"Mon",
	"weekday":"Monday",
	"ampm":"PM",
	"tz_short":"PST",
	"tz_long":"America/Los_Angeles"
},
		"period":2,
		"high": {
		"fahrenheit":"54",
		"celsius":"12"
		},
		"low": {
		"fahrenheit":"52",
		"celsius":"11"
		},
		"conditions":"Rain",
		"icon":"rain",
		"icon_url":"http://icons.wxug.com/i/c/k/rain.gif",
		"skyicon":"",
		"pop":90,
		"qpf_allday": {
		"in": 1.71,
		"mm": 43
		},
		"qpf_day": {
		"in": 0.53,
		"mm": 13
		},
		"qpf_night": {
		"in": 1.18,
		"mm": 30
		},
		"snow_allday": {
		"in": 0.0,
		"cm": 0.0
		},
		"snow_day": {
		"in": 0.0,
		"cm": 0.0
		},
		"snow_night": {
		"in": 0.0,
		"cm": 0.0
		},
		"maxwind": {
		"mph": 35,
		"kph": 56,
		"dir": "S",
		"degrees": 179
		},
		"avewind": {
		"mph": 26,
		"kph": 42,
		"dir": "S",
		"degrees": 179
		},
		"avehumidity": 79,
		"maxhumidity": 0,
		"minhumidity": 0
		}
		,
		{"date":{
	"epoch":"1551236400",
	"pretty":"7:00 PM PST on February 26, 2019",
	"day":26,
	"month":2,
	"year":2019,
	"yday":56,
	"hour":19,
	"min":"00",
	"sec":0,
	"isdst":"0",
	"monthname":"February",
	"monthname_short":"Feb",
	"weekday_short":"Tue",
	"weekday":"Tuesday",
	"ampm":"PM",
	"tz_short":"PST",
	"tz_long":"America/Los_Angeles"
},
		"period":3,
		"high": {
		"fahrenheit":"55",
		"celsius":"13"
		},
		"low": {
		"fahrenheit":"52",
		"celsius":"11"
		},
		"conditions":"Rain",
		"icon":"rain",
		"icon_url":"http://icons.wxug.com/i/c/k/rain.gif",
		"skyicon":"",
		"pop":100,
		"qpf_allday": {
		"in": 1.61,
		"mm": 41
		},
		"qpf_day": {
		"in": 0.96,
		"mm": 24
		},
		"qpf_night": {
		"in": 0.65,
		"mm": 17
		},
		"snow_allday": {
		"in": 0.0,
		"cm": 0.0
		},
		"snow_day": {
		"in": 0.0,
		"cm": 0.0
		},
		"snow_night": {
		"in": 0.0,
		"cm": 0.0
		},
		"maxwind": {
		"mph": 35,
		"kph": 56,
		"dir": "S",
		"degrees": 177
		},
		"avewind": {
		"mph": 27,
		"kph": 43,
		"dir": "S",
		"degrees": 177
		},
		"avehumidity": 84,
		"maxhumidity": 0,
		"minhumidity": 0
		}
		,
		{"date":{
	"epoch":"1551322800",
	"pretty":"7:00 PM PST on February 27, 2019",
	"day":27,
	"month":2,
	"year":2019,
	"yday":57,
	"hour":19,
	"min":"00",
	"sec":0,
	"isdst":"0",
	"monthname":"February",
	"monthname_short":"Feb",
	"weekday_short":"Wed",
	"weekday":"Wednesday",
	"ampm":"PM",
	"tz_short":"PST",
	"tz_long":"America/Los_Angeles"
},
		"period":4,
		"high": {
		"fahrenheit":"56",
		"celsius":"13"
		},
		"low": {
		"fahrenheit":"47",
		"celsius":"8"
		},
		"conditions":"Chance of Rain",
		"icon":"chancerain",
		"icon_url":"http://icons.wxug.com/i/c/k/chancerain.gif",
		"skyicon":"",
		"pop":60,
		"qpf_allday": {
		"in": 0.06,
		"mm": 2
		},
		"qpf_day": {
		"in": 0.06,
		"mm": 2
		},
		"qpf_night": {
		"in": 0.00,
		"mm": 0
		},
		"snow_allday": {
		"in": 0.0,
		"cm": 0.0
		},
		"snow_day": {
		"in": 0.0,
		"cm": 0.0
		},
		"snow_night": {
		"in": 0.0,
		"cm": 0.0
		},
		"maxwind": {
		"mph": 20,
		"kph": 32,
		"dir": "SSW",
		"degrees": 211
		},
		"avewind": {
		"mph": 15,
		"kph": 24,
		"dir": "SSW",
		"degrees": 211
		},
		"avehumidity": 83,
		"maxhumidity": 0,
		"minhumidity": 0
		}
		]
		}
	}
}
